{
  "pois": [
    {
      "id": "manifattura",
      "lat": 44.49911485308791,
      "lon": 11.33668386365537,
      "visual_lat": 44.498834853087914,
      "visual_lon": 11.33659786365537,
      "threshold": 50,
      "nav_id": "navManifattura",
      "base_name": "manifattura",
      "categoria": "edificio"
    },
    {
      "id": "pittoricarracci",
      "lat": 44.498944,
      "lon": 11.340329,
      "visual_lat": 44.498664000000005,
      "visual_lon": 11.340243000000001,
      "threshold": 50,
      "nav_id": "navPittoricarracci",
      "base_name": "pittoricarracci",
      "categoria": "edificio"
    },
    {
      "id": "cavaticcio",
      "lat": 44.50018,
      "lon": 11.33807,
      "visual_lat": 44.499900000000004,
      "visual_lon": 11.337984,
      "threshold": 50,
      "nav_id": "navCavaticcio",
      "base_name": "cavaticcio",
      "categoria": "edificio"
    },
    {
      "id": "bsmariamaggiore",
      "lat": 44.49806368372069,
      "lon": 11.34192628931731,
      "visual_lat": 44.49778368372069,
      "visual_lon": 11.341840289317311,
      "threshold": 50,
      "nav_id": "navBsmariamaggiore",
      "base_name": "bsmariamaggiore",
      "categoria": "edificio"
    },
    {
      "id": "graziaxx",
      "lat": 44.5006638888889,
      "lon": 11.3407694444444,
      "visual_lat": 44.500383888888905,
      "visual_lon": 11.3406834444444,
      "threshold": 50,
      "nav_id": "navGraziaxx",
      "base_name": "graziaxx",
      "categoria": "edificio"
    },
    {
      "id": "pugliole",
      "lat": 44.50018,
      "lon": 11.339986,
      "visual_lat": 44.499900000000004,
      "visual_lon": 11.3399,
      "threshold": 50,
      "nav_id": "navPugliole",
      "base_name": "pugliole",
      "categoria": "edificio"
    },
    {
      "id": "carracci",
      "lat": 44.4999972222222,
      "lon": 11.3403888888889,
      "visual_lat": 44.4997172222222,
      "visual_lon": 11.3403028888889,
      "threshold": 50,
      "nav_id": "navCarracci",
      "base_name": "carracci",
      "categoria": "edificio"
    },
    {
      "id": "lastre",
      "lat": 44.49925278,
      "lon": 11.34074444,
      "visual_lat": 44.49897278,
      "visual_lon": 11.34065844,
      "threshold": 50,
      "nav_id": "navLastre",
      "base_name": "lastre",
      "categoria": "edificio"
    },
    {
      "id": "chiesasbene",
      "lat": 44.501514,
      "lon": 11.343557,
      "visual_lat": 44.501234000000004,
      "visual_lon": 11.343471000000001,
      "threshold": 50,
      "nav_id": "navChiesasbene",
      "base_name": "chiesasbene",
      "categoria": "edificio"
    },
    {
      "id": "santuariopioggia",
      "lat": 44.498899,
      "lon": 11.342153,
      "visual_lat": 44.498619000000005,
      "visual_lon": 11.342067,
      "threshold": 50,
      "nav_id": "navSantuariopioggia",
      "base_name": "santuariopioggia",
      "categoria": "edificio"
    },
    {
      "id": "pioggia1",
      "lat": 44.498899,
      "lon": 11.342241,
      "visual_lat": 44.498619000000005,
      "visual_lon": 11.342155,
      "threshold": 50,
      "nav_id": "navPioggia1",
      "base_name": "pioggia1",
      "categoria": "edificio"
    },
    {
      "id": "pioggia2",
      "lat": 44.499069,
      "lon": 11.341809,
      "visual_lat": 44.498789,
      "visual_lon": 11.341723,
      "threshold": 50,
      "nav_id": "navPioggia2",
      "base_name": "pioggia2",
      "categoria": "edificio"
    },
    {
      "id": "pioggia3",
      "lat": 44.49908,
      "lon": 11.3422411,
      "visual_lat": 44.4988,
      "visual_lon": 11.342155100000001,
      "threshold": 50,
      "nav_id": "navPioggia3",
      "base_name": "pioggia3",
      "categoria": "edificio"
    },
    {
      "id": "chiesasancarlo",
      "lat": 44.50124875821167,
      "lon": 11.34075366622929,
      "visual_lat": 44.50096875821168,
      "visual_lon": 11.34066766622929,
      "threshold": 50,
      "nav_id": "navChiesasancarlo",
      "base_name": "chiesasancarlo",
      "categoria": "edificio"
    }
  ]
}