{
  "pois": [
    {
      "id": "manifattura",
      "lat": 44.4989321,
      "lon": 11.3366180,
      "threshold": 50,
      "nav_id": "navManifattura",
      "base_name": "manifattura",
      "categoria": "edificio"
    },
    {
      "id": "pittoricarracci",
      "lat": 44.499090,
      "lon": 11.340316,
      "threshold": 50,
      "nav_id": "navPittoriCarracci",
      "base_name": "pittoricarracci",
      "categoria": "arte"
    },
    {
      "id": "cavaticcio",
      "lat": 44.500207,
      "lon": 11.338076,
      "threshold": 50,
      "nav_id": "navCavaticcio",
      "base_name": "cavaticcio",
      "categoria": "edificio"
    },
   {
      "id": "bsmariamaggiore",
      "lat": 44.498118,
      "lon": 11.341923,
      "threshold": 50,
      "nav_id": "navBSMariaMaggiore",
      "base_name": "bsmariamaggiore",
      "categoria": "edificio"
    },
    {
      "id": "graziaxx",
      "lat": 44.500594,
      "lon": 11.340758,
      "threshold": 50,
      "nav_id": "navGraziaxx",
      "base_name": "graziaxx",
      "categoria": "esterno"
    },
    {
      "id": "pugliole",
      "lat": 44.500071,
      "lon": 11.339805,
      "threshold": 50,
      "nav_id": "navPugliole",
      "base_name": "pugliole",
      "categoria": "esterno"
    },
    {
      "id": "carracci",
      "lat": 44.499912,
      "lon": 11.340410,
      "threshold": 50,
      "nav_id": "navCarracci",
      "base_name": "carracci",
      "categoria": "edificio"
    },
    {
      "id": "lastre",
      "lat": 44.499312,
      "lon": 11.340714,
      "threshold": 50,
      "nav_id": "navLastre",
      "base_name": "lastre",
      "categoria": "esterno"
    },
    {
      "id": "chiesasbene",
      "lat": 44.501900,
      "lon": 11.343843,
      "threshold": 120,
      "nav_id": "navChiesaSBene",
      "base_name": "chiesasbene",
      "categoria": "edificio"
    },
    {
      "id": "santuariopioggia",
      "lat": 44.498891,
      "lon": 11.342148,
      "threshold": 120,
      "nav_id": "navSantuarioPioggia",
      "base_name": "santuariopioggia",
      "categoria": "edificio"
    },
    {
      "id": "pioggia1",
      "lat": 44.498921,
      "lon": 11.341923,
      "threshold": 120,
      "nav_id": "navPioggia1",
      "base_name": "pioggia1",
      "categoria": "quadro"
    },
    {
      "id": "pioggia2",
      "lat": 44.499023,
      "lon": 11.341760,
      "threshold": 120,
      "nav_id": "navPioggia2",
      "base_name": "pioggia2",
      "categoria": "statua"
    },
    {
      "id": "pioggia3",
      "lat": 44.499023,
      "lon": 11.341760,
      "threshold": 120,
      "nav_id": "navPioggia3",
      "base_name": "pioggia3",
      "categoria": "quadro"
    },
    {
      "id": "chiesasancarlo",
      "lat": 44.501295,
      "lon": 11.340850,
      "threshold": 120,
      "nav_id": "navChiesaSanCarlo",
      "base_name": "chiesasancarlo",
      "categoria": "edificio"
    }
  ]
}