{
  "pois": [
    {
      "id": "manifattura",
      "lat": 44.49911485308791,
      "lon": 11.336683863655372,
      "visual_lat": 44.49911485308791,
      "visual_lon": 11.336683863655372,
      "threshold": 50,
      "nav_id": "navManifattura",
      "base_name": "manifattura",
      "categoria": "edificio"
    },
    {
      "id": "pittoricarracci",
      "lat": 44.498944,
      "lon": 11.340329,
      "visual_lat": 44.498944,
      "visual_lon": 11.340329,
      "threshold": 50,
      "nav_id": "navPittoriCarracci",
      "base_name": "pittoricarracci",
      "categoria": "arte"
    },
    {
      "id": "cavaticcio",
      "lat": 44.50018,
      "lon": 11.33807,
      "visual_lat": 44.50018,
      "visual_lon": 11.33807,
      "threshold": 50,
      "nav_id": "navCavaticcio",
      "base_name": "cavaticcio",
      "categoria": "edificio"
    },
    {
      "id": "bsmariamaggiore",
      "lat": 44.49806368372069,
      "lon": 11.34192628931731,
      "visual_lat": 44.49806368372069,
      "visual_lon": 11.34192628931731,
      "threshold": 50,
      "nav_id": "navBSMariaMaggiore",
      "base_name": "bsmariamaggiore",
      "categoria": "edificio"
    },
    {
      "id": "graziaxx",
      "lat": 44.5006638888889,
      "lon": 11.3407694444444,
      "visual_lat": 44.5006638888889,
      "visual_lon": 11.3407694444444,
      "threshold": 50,
      "nav_id": "navGraziaxx",
      "base_name": "graziaxx",
      "categoria": "esterno"
    },
    {
      "id": "pugliole",
      "lat": 44.500180,
      "lon": 11.339986,
      "visual_lat": 44.499,
      "visual_lon": 11.33985,
      "threshold": 50,
      "nav_id": "navPugliole",
      "base_name": "pugliole",
      "categoria": "esterno"
    },
    {
      "id": "carracci",
      "lat": 44.4999972222222,
      "lon": 11.3403888888889,
      "visual_lat": 44.4999972222222,
      "visual_lon": 11.3403888888889,
      "threshold": 50,
      "nav_id": "navCarracci",
      "base_name": "carracci",
      "categoria": "edificio"
    },
    {
      "id": "lastre",
      "lat": 44.49925278,
      "lon": 11.34074444,
      "visual_lat": 44.49925278,
      "visual_lon": 11.34074444,
      "threshold": 50,
      "nav_id": "navLastre",
      "base_name": "lastre",
      "categoria": "esterno"
    },
    {
      "id": "chiesasbene",
      "lat": 44.501514,
      "lon": 11.343557,
      "visual_lat": 44.501514,
      "visual_lon": 11.343557,
      "threshold": 120,
      "nav_id": "navChiesaSBene",
      "base_name": "chiesasbene",
      "categoria": "edificio"
    },
    {
      "id": "santuariopioggia",
      "lat": 44.498899,
      "lon": 11.342153,
      "visual_lat": 44.498899,
      "visual_lon": 11.342153,
      "threshold": 120,
      "nav_id": "navSantuarioPioggia",
      "base_name": "santuariopioggia",
      "categoria": "edificio"
    },
    {
      "id": "pioggia1",
      "lat": 44.498899,
      "lon": 11.342241,
      "visual_lat": 44.498899,
      "visual_lon": 11.342241,
      "threshold": 120,
      "nav_id": "navPioggia1",
      "base_name": "pioggia1",
      "categoria": "quadro"
    },
    {
      "id": "pioggia2",
      "lat": 44.499069,
      "lon": 11.341809,
      "visual_lat": 44.499069,
      "visual_lon": 11.341809,
      "threshold": 120,
      "nav_id": "navPioggia2",
      "base_name": "pioggia2",
      "categoria": "statua"
    },
    {
      "id": "pioggia3",
      "lat": 44.49908,
      "lon": 11.3422411,
      "visual_lat": 44.49908,
      "visual_lon": 11.3422411,
      "threshold": 120,
      "nav_id": "navPioggia3",
      "base_name": "pioggia3",
      "categoria": "quadro"
    },
    {
      "id": "chiesasancarlo",
      "lat": 44.50124875821167,
      "lon": 11.340753666229292,
      "visual_lat": 44.50124875821167,
      "visual_lon": 11.340753666229292,
      "threshold": 120,
      "nav_id": "navChiesaSanCarlo",
      "base_name": "chiesasancarlo",
      "categoria": "edificio"
    }
  ]
}