{
  "pois": [
    {
      "id": "manifattura",
      "lat": 44.50035,
      "lon": 11.33715,
      "threshold": 50,
      "nav_id": "navManifattura",
      "base_name": "manifattura",
      "categoria": "edificio"
    },
    {
      "id": "pittoricarracci",
      "lat": 44.49835,
      "lon": 11.34025,
      "threshold": 50,
      "nav_id": "navPittoriCarracci",
      "base_name": "pittoricarracci",
      "categoria": "arte"
    },
    {
      "id": "cavaticcio",
      "lat": 44.49985,
      "lon": 11.33860,
      "threshold": 50,
      "nav_id": "navCavaticcio",
      "base_name": "cavaticcio",
      "categoria": "edificio"
    },
    {
      "id": "bsmariamaggiore",
      "lat": 44.49815,
      "lon": 11.34185,
      "threshold": 50,
      "nav_id": "navBSMariaMaggiore",
      "base_name": "bsmariamaggiore",
      "categoria": "edificio"
    },
    {
      "id": "graziaxx",
      "lat": 44.50050,
      "lon": 11.34075,
      "threshold": 50,
      "nav_id": "navGraziaxx",
      "base_name": "graziaxx",
      "categoria": "esterno"
    },
    {
      "id": "pugliole",
      "lat": 44.50010,
      "lon": 11.34010,
      "threshold": 50,
      "nav_id": "navPugliole",
      "base_name": "pugliole",
      "categoria": "esterno"
    },
    {
      "id": "carracci",
      "lat": 44.49975,
      "lon": 11.34030,
      "threshold": 50,
      "nav_id": "navCarracci",
      "base_name": "carracci",
      "categoria": "edificio"
    },
    {
      "id": "lastre",
      "lat": 44.49920,
      "lon": 11.34070,
      "threshold": 50,
      "nav_id": "navLastre",
      "base_name": "lastre",
      "categoria": "esterno"
    },
    {
      "id": "chiesasbene",
      "lat": 44.50205,
      "lon": 11.34365,
      "threshold": 120,
      "nav_id": "navChiesaSBene",
      "base_name": "chiesasbene",
      "categoria": "edificio"
    },
    {
      "id": "santuariopioggia",
      "lat": 44.49895,
      "lon": 11.34195,
      "threshold": 120,
      "nav_id": "navSantuarioPioggia",
      "base_name": "santuariopioggia",
      "categoria": "edificio"
    },
    {
      "id": "pioggia1",
      "lat": 44.49895,
      "lon": 11.34195,
      "threshold": 120,
      "nav_id": "navPioggia1",
      "base_name": "pioggia1",
      "categoria": "quadro"
    },
    {
      "id": "pioggia2",
      "lat": 44.49895,
      "lon": 11.34195,
      "threshold": 120,
      "nav_id": "navPioggia2",
      "base_name": "pioggia2",
      "categoria": "statua"
    },
    {
      "id": "pioggia3",
      "lat": 44.49895,
      "lon": 11.34195,
      "threshold": 120,
      "nav_id": "navPioggia3",
      "base_name": "pioggia3",
      "categoria": "quadro"
    },
    {
      "id": "chiesasancarlo",
      "lat": 44.50125,
      "lon": 11.34075,
      "threshold": 120,
      "nav_id": "navChiesaSanCarlo",
      "base_name": "chiesasancarlo",
      "categoria": "edificio"
    }
  ]
}