{
  "pois": [
    {
      "id": "manifattura",
      "lat": 44.4988528,
      "lon": 11.3366249,
      "threshold": 50,
      "nav_id": "navManifattura",
      "base_name": "manifattura",
      "categoria": "edificio"
    },
    {
      "id": "pittoricarracci",
      "lat": 44.498944,
      "lon": 11.340329,
      "threshold": 50,
      "nav_id": "navPittoriCarracci",
      "base_name": "pittoricarracci",
      "categoria": "arte"
    },
    {
      "id": "cavaticcio",
      "lat": 44.5000767,
      "lon": 11.3383811,
      "threshold": 50,
      "nav_id": "navCavaticcio",
      "base_name": "cavaticcio",
      "categoria": "edificio"
    },
    {
      "id": "bsmariamaggiore",
      "lat": 44.4980369,
      "lon": 11.3419451,
      "threshold": 50,
      "nav_id": "navBSMariaMaggiore",
      "base_name": "bsmariamaggiore",
      "categoria": "edificio"
    },
    {
      "id": "graziaxx",
      "lat": 44.50066389,
      "lon": 11.34076944,
      "threshold": 50,
      "nav_id": "navGraziaxx",
      "base_name": "graziaxx",
      "categoria": "esterno"
    },
    {
      "id": "pugliole",
      "lat": 44.5001964,
      "lon": 11.3398976,
      "threshold": 50,
      "nav_id": "navPugliole",
      "base_name": "pugliole",
      "categoria": "esterno"
    },
    {
      "id": "carracci",
      "lat": 44.4999398,
      "lon": 11.340405,
      "threshold": 50,
      "nav_id": "navCarracci",
      "base_name": "carracci",
      "categoria": "edificio"
    },
    {
      "id": "lastre",
      "lat": 44.49925278,
      "lon": 11.34074444,
      "threshold": 50,
      "nav_id": "navLastre",
      "base_name": "lastre",
      "categoria": "esterno"
    },
    {
      "id": "chiesasbene",
      "lat": 44.501514,
      "lon": 11.343557,
      "threshold": 120,
      "nav_id": "navChiesaSBene",
      "base_name": "chiesasbene",
      "categoria": "edificio"
    },
    {
      "id": "santuariopioggia",
      "lat": 44.498887,
      "lon":  11.3420797,
      "threshold": 120,
      "nav_id": "navSantuarioPioggia",
      "base_name": "santuariopioggia",
      "categoria": "edificio"
    },
    {
      "id": "pioggia1",
      "lat": 44.4988927,
      "lon":  11.3419269,
       "threshold": 120,
      "nav_id": "navPioggia1",
      "base_name": "pioggia1",
      "categoria": "quadro"
    },
    {
      "id": "pioggia2",
      "lat": 44.4988161, 
      "lon": 11.3417799,
      "threshold": 120,
      "nav_id": "navPioggia2",
      "base_name": "pioggia2",
      "categoria": "statua"
    },
    {
      "id": "pioggia3",
      "lat": 44.4988161, 
      "lon": 11.3417799,
      "threshold": 120,
      "nav_id": "navPioggia3",
      "base_name": "pioggia3",
      "categoria": "quadro"
    },
    {
      "id": "chiesasancarlo",
      "lat": 44.5011244,
      "lon": 11.3408395,
      "threshold": 120,
      "nav_id": "navChiesaSanCarlo",
      "base_name": "chiesasancarlo",
      "categoria": "edificio"
    }
  ]
}